City_ID,City,Country,Max Temp,Current Description,Lat,Lng,Hotel Name
0,Hithadhoo,MV,80.49,few clouds,-0.6,73.0833,Pebbles Inn
2,Qaanaaq,GL,-11.16,overcast clouds,77.484,-69.3632,Hotel Qaanaaq
3,Punta Arenas,CL,59.11,broken clouds,-53.15,-70.9167,Hotel Lacolet
5,Kapaa,US,80.92,clear sky,22.0752,-159.319,Pono Kai Resort
7,Nishihara,JP,63.68,scattered clouds,26.1842,127.7558,ユインチホテル南城
8,Longyearbyen,SJ,26.44,broken clouds,78.2186,15.6401,The Vault
9,Barranca,PE,70.11,overcast clouds,-10.75,-77.7667,Emperador
10,Ilulissat,GL,0.81,overcast clouds,69.2167,-51.1,Best Western Plus Hotel Ilulissat
11,Byron Bay,AU,80.94,broken clouds,-28.65,153.6167,Lord Byron Resort
12,Ushuaia,AR,56.86,scattered clouds,-54.8,-68.3,Apart Hotel Aires del Beagle
13,Vila Franca Do Campo,PT,59.41,overcast clouds,37.7167,-25.4333,Vinha d'Areia Beach Hotel
14,Kodiak,US,29.88,broken clouds,57.79,-152.4072,Shelikof Lodge
15,Cape Town,ZA,66.38,clear sky,-33.9258,18.4232,Townhouse Hotel
17,San Rafael,AR,84.79,few clouds,-34.6177,-68.3301,Hotel Regional
18,Samana,DO,74.62,overcast clouds,19.2056,-69.3369,Hotel Cotubanamá
20,Prien,US,64.38,clear sky,30.1819,-93.2738,Golden Nugget Lake Charles Hotel & Casino
21,Miedzychod,PL,43.52,scattered clouds,52.5988,15.897,Neptun
23,Port Lincoln,AU,82.58,clear sky,-34.7333,135.8667,Boston Hotel
24,San Jose,US,60.01,clear sky,37.3394,-121.895,Hotel De Anza
25,Bathsheba,BB,79.41,scattered clouds,13.2167,-59.5167,Atlantis Hotel
26,Puerto Ayora,EC,73.54,clear sky,-0.7393,-90.3518,Hostal La Mirada De Solitario George
27,Haines Junction,CA,12.15,overcast clouds,60.7522,-137.5108,Parkside Inn
28,Tiksi,RU,-30.15,overcast clouds,71.6872,128.8694,Арктика
29,Tuktoyaktuk,CA,-5.8,mist,69.4541,-133.0374,Hunter's B&B
30,Atar,MR,64.72,overcast clouds,20.5169,-13.0499,فندق سكليل
32,Vaini,TO,84.36,light rain,-21.2,-175.2,Keleti International Resort
33,Talnakh,RU,-41.8,broken clouds,69.4865,88.3972,Талнах
34,Bom Jesus,BR,74.32,light rain,-9.0744,-44.3586,Hotel Brasão
35,Ponta Do Sol,PT,65.01,scattered clouds,32.6667,-17.1,Estalagem Ponta do Sol
36,Kahului,US,77.04,clear sky,20.8947,-156.47,Maui Seaside Hotel
37,Port Elizabeth,ZA,60.31,clear sky,-33.918,25.5701,Waterford Hotel
41,Jamestown,US,33.55,light snow,42.097,-79.2353,DoubleTree Jamestown
42,Grindavik,IS,30.67,broken clouds,63.8424,-22.4338,The Retreat at Blue Lagoon Iceland
43,Georgetown,MY,78.73,moderate rain,5.4112,100.3354,Page 63 hostel
44,Barra Do Garcas,BR,70.43,light rain,-15.89,-52.2567,Pousada Portal
45,Karatu,TZ,59.77,light rain,-3.3333,35.6667,The Octagon Safari Lodge
46,Victoria,HK,66.33,broken clouds,22.2855,114.1577,四季酒店 Four Seasons Hotel
49,Puerto Madryn,AR,76.26,overcast clouds,-42.7692,-65.0385,Hotel Gran Palace
50,Rio Gallegos,AR,55.45,broken clouds,-51.6226,-69.2181,Amérian Río Gallegos Apart & Suites
51,Zatoka,UA,36.14,broken clouds,46.0725,30.4654,Жемчужина Затоки
55,Kasempa,ZM,63.57,light rain,-13.4584,25.8338,Kasmpa Council Guest House
56,Bethel,US,42.01,overcast clouds,41.3712,-73.414,Hampton Inn Danbury
58,Mar Del Plata,AR,77.02,clear sky,-38.0023,-57.5575,Nuevo Ostende
61,Ancud,CL,57.63,overcast clouds,-41.8697,-73.8203,Cabañas
62,Troitsko-Pechorsk,RU,-24.23,overcast clouds,62.7084,56.1964,"Гостиница ""Печора"""
63,Salalah,OM,71.38,broken clouds,17.0151,54.0924,Muscat International Hotel
64,Juba,SS,73.53,scattered clouds,4.8517,31.5825,Hotel Juba Regency
65,San Quintin,MX,59.38,overcast clouds,30.4833,-115.95,Jardines Hotel
66,Hilo,US,88.29,clear sky,19.7297,-155.09,Dolphin Bay Hotel
67,Amuntai,ID,79.81,overcast clouds,-2.4177,115.2494,Grand Balqis Hotel
70,Thompson,CA,8.76,light snow,55.7435,-97.8558,Thompson Inn
71,Hermanus,ZA,55.8,clear sky,-34.4187,19.2345,Aloe guest house
73,Gazojak,TM,40.51,overcast clouds,41.1875,61.4036,Жайхун
75,Mahebourg,MU,77.29,broken clouds,-20.4081,57.7,Grand Bel Air
76,Klaksvik,FO,29.32,overcast clouds,62.2266,-6.589,Hotel Klaksvik
77,Sisimiut,GL,17.53,overcast clouds,66.9395,-53.6735,Sømandshjemmet
78,Burriana,ES,47.7,clear sky,39.889,-0.085,Hotel Aloha
80,Marienburg,PL,38.57,overcast clouds,54.0359,19.0266,Stary Malbork
82,Inirida,CO,74.46,overcast clouds,3.8653,-67.9239,Residencias El Turista del Guainia
83,Erwitte,DE,51.75,overcast clouds,51.6167,8.35,Schloss Erwitte
84,Sinnamary,GF,75.92,overcast clouds,5.3833,-52.95,Hôtel du fleuve
85,Erenhot,CN,18.81,overcast clouds,43.6475,111.9767,Oulen hotel
86,Paamiut,GL,18.99,overcast clouds,61.994,-49.6678,Hotel Ivaana
89,Avarua,CK,80.65,moderate rain,-21.2078,-159.775,Paradise Inn
90,Rikitea,PF,78.98,clear sky,-23.1203,-134.9692,Chez Bianca & Benoit
97,Igarka,RU,-45.0,clear sky,67.4667,86.5833,Заполярье
99,Santa Marta,CO,82.89,few clouds,11.2408,-74.199,Casa Mita
100,Stuttgart,DE,47.8,overcast clouds,48.7823,9.177,Hotel Unger
101,Gizo,SB,85.46,overcast clouds,-8.103,156.8419,Gizo Hotel
102,Isangel,VU,82.92,moderate rain,-19.55,169.2667,Tanna Lodge
103,Jan Kempdorp,ZA,60.3,clear sky,-27.9225,24.8305,Jan Kemp Hotel
105,Saint-Pierre,RE,76.91,few clouds,-21.3393,55.4781,Tropic Hotel
106,Taunggyi,MM,52.18,clear sky,20.7833,97.0333,Golden Island Cottages
107,Honiara,SB,83.44,light rain,-9.4333,159.95,King Solomon Hotel
108,Hamilton,US,36.39,broken clouds,39.1834,-84.5333,North Vista Manor
109,Nanortalik,GL,17.87,broken clouds,60.1432,-45.2371,Kap Farvel
114,Selma,US,57.13,clear sky,36.5708,-119.6121,Best Western
115,Kapoeta,SS,77.56,few clouds,4.7717,33.5903,Kuleu
116,Hammerfest,NO,27.05,few clouds,70.6634,23.6821,Thon Hotel Hammerfest
117,Marevo,RU,-4.4,few clouds,57.3146,32.0804,Ивушка
118,Acaponeta,MX,70.2,clear sky,22.4964,-105.3594,Hotel Quinta Blanca
120,Yumbo,CO,73.17,scattered clouds,3.5823,-76.4915,Oscar Castaño Yumbo
122,Kavieng,PG,84.58,overcast clouds,-2.5744,150.7967,Kavieng Hotel
123,Bacolod,PH,79.59,overcast clouds,10.6667,122.95,Northwest Inn
124,Grand Gaube,MU,77.4,overcast clouds,-20.0064,57.6608,Coco Villa
125,Constitucion,CL,58.78,clear sky,-35.3333,-72.4167,Hostal Alameda
127,Tasiilaq,GL,20.21,overcast clouds,65.6145,-37.6368,Angmagssalik
128,La Paz,BO,49.98,broken clouds,-16.5,-68.15,Alojamiento Tokio
129,Hualmay,PE,70.11,overcast clouds,-11.0964,-77.6139,Hotel Mi Choacan
130,Ulcinj,ME,48.97,clear sky,41.9294,19.2244,Hostel Pirate
131,Zheleznogorsk,RU,1.94,clear sky,52.331,35.3711,Гостиница Железногорск
132,Bundaberg,AU,86.22,scattered clouds,-24.85,152.35,Young Australian Hotel
136,Saint-Philippe,RE,76.59,overcast clouds,-21.3585,55.7679,Le Baril
137,Quatre Cocos,MU,77.11,broken clouds,-20.2078,57.7625,Horisun
140,Acapulco,MX,78.49,clear sky,16.8634,-99.8901,Hotel del Valle
141,Morant Bay,JM,80.22,clear sky,17.8815,-76.4093,Morant Villas
142,Half Moon Bay,US,60.06,haze,37.4636,-122.4286,Half Moon Bay Inn
143,Jalu,LY,54.77,clear sky,29.0331,21.5482,فندق جالو السياحي
144,Bulawayo,ZW,63.3,light rain,-20.15,28.5833,Selboune Hotel
145,Fortuna,US,53.65,overcast clouds,40.5982,-124.1573,Comfort Inn & Suites Redwood Country
146,Inverell,AU,85.66,clear sky,-29.7833,151.1167,Oxford Hotel
148,Soyo,AO,78.08,overcast clouds,-6.1349,12.3689,Hotel Maria Teres
149,Khatanga,RU,-52.56,overcast clouds,71.9667,102.5,Хатанга
151,Qasigiannguit,GL,5.41,overcast clouds,68.8193,-51.1922,Hotel Diskobay
152,Pochutla,MX,73.45,light rain,15.7432,-96.4661,Posada San Jose
153,Los Llanos De Aridane,ES,60.55,clear sky,28.6585,-17.9182,Valle Aridane
154,Asyut,EG,48.38,clear sky,27.181,31.1837,فندق الحسين
156,Touros,BR,78.8,clear sky,-5.1989,-35.4608,Pousada Atlântico
161,Hovd,MN,16.43,overcast clouds,48.0056,91.6419,Khovd hotel
162,Alta Floresta,BR,69.91,overcast clouds,-9.8756,-56.0861,Villas Hotel
163,Florence,IT,54.3,overcast clouds,43.7667,11.25,Old bridge Apartment
164,Darnah,LY,58.91,light rain,32.767,22.6367,فندق الفردوس
166,Concepcion,CL,62.4,broken clouds,-36.827,-73.0498,Hotel One (ex-Biobio)
167,Zhigansk,RU,-51.5,overcast clouds,66.7697,123.3711,ИП Пав
168,Cidreira,BR,71.64,clear sky,-30.1811,-50.2056,Hotel Castelo
169,Prince Rupert,CA,48.29,light rain,54.3161,-130.3201,Crest Hotel
171,Inuvik,CA,-1.34,light snow,68.3499,-133.7218,Capital Suites
172,Atuona,PF,78.69,clear sky,-9.8,-139.0333,Pearl Resort
175,Narsaq,GL,6.96,overcast clouds,60.9167,-46.05,Hotel Narsaq
176,Geraldton,AU,70.21,clear sky,-28.7667,114.6,Ocean Centre Hotel
178,Sibolga,ID,76.37,overcast clouds,1.7427,98.7792,Hotel Prima Indah
179,Hobart,AU,70.27,broken clouds,-42.8794,147.3294,Vibe Hotel Hobart
181,High Level,CA,5.38,overcast clouds,58.5169,-117.136,Executive House Suites Hotel & Conference Centre
182,Batagay,RU,-37.59,overcast clouds,67.6333,134.6333,Киселях
183,Yulara,AU,80.08,overcast clouds,-25.2406,130.9889,Outback Pioneer Hotel & Lodge
185,Fairbanks,US,9.82,overcast clouds,64.8378,-147.7164,Westmark Fairbanks Hotel
187,Nongstoin,IN,48.11,clear sky,25.5167,91.2667,OYO Yoo-Yee traveller's Inn
188,Zharkent,KZ,21.16,scattered clouds,44.1628,80.0,Hotel (good)
189,Vila Velha,BR,73.94,moderate rain,-20.3297,-40.2925,Hotel Prainha
190,Porto Novo,BJ,75.97,clear sky,6.4965,2.6036,Hôtel 6500 CFA
191,Den Helder,NL,53.02,mist,52.9599,4.7593,Forest Hotel
193,Rocha,UY,64.8,clear sky,-34.4833,-54.3333,Hotel Municipal
194,New Norfolk,AU,69.93,clear sky,-42.7826,147.0587,Woodbridge on the Derwent
195,Morondava,MG,77.61,overcast clouds,-20.2833,44.2833,Hotel Sharon Menabe
196,Liverpool,GB,54.52,light rain,53.4106,-2.9779,The Lord Nelson Hotel
197,Dothan,US,49.8,clear sky,31.2232,-85.3905,Comfort Inn & Suites Dothan East
198,Kloulklubed,PW,77.5,moderate rain,7.0419,134.2556,The Adventures Inn
200,Roman,RO,34.07,few clouds,46.9167,26.9167,Royal***
204,Lavrentiya,RU,5.76,overcast clouds,65.5833,-171.0,Фортуна
206,Shimoda,JP,47.1,clear sky,34.6667,138.95,ホテルウラガ
207,Manchester,GB,54.86,broken clouds,53.4809,-2.2374,Travelodge
208,San Vicente De Canete,PE,69.75,overcast clouds,-13.0751,-76.3835,Hotel Colibrí
210,Derzhavinsk,KZ,24.94,overcast clouds,51.1,66.3167,Ишим
213,Fulton,US,48.25,clear sky,33.7668,-84.4499,"Bellyard, Atlanta, a Tribute Portfolio Hotel"
214,Edwardsville,US,44.01,clear sky,38.8114,-89.9532,Holiday Inn Express & Suites
216,Saldanha,ZA,62.58,clear sky,-33.0117,17.9442,Hoedjesbaai
218,Havoysund,NO,32.23,broken clouds,70.9963,24.6622,Havøysund Hotell
220,Norman Wells,CA,-14.55,broken clouds,65.282,-126.8329,Yamouri Inn
221,Tommot,RU,-7.22,overcast clouds,58.9564,126.2925,Томмот
222,Valdivia,CL,55.31,scattered clouds,-39.8142,-73.2459,Esmeralda
223,Matara,LK,73.22,broken clouds,5.9485,80.5353,Villa Palm Breeze
224,Lorengau,PG,82.44,overcast clouds,-2.0226,147.2712,Seeadler Bay Hotel
225,Souillac,MU,77.38,broken clouds,-20.5167,57.5167,Hotel SkylineInn
226,Sao Joao Da Barra,BR,71.29,overcast clouds,-21.6403,-41.0511,Pousada Mediterrâneo
227,Castro,BR,54.99,few clouds,-24.7911,-50.0119,Hotel Central Palace
228,Joshimath,IN,46.08,scattered clouds,30.5667,79.5667,Snow Crest Hotel
230,Salinopolis,BR,79.29,scattered clouds,-0.6136,-47.3561,Hotel Salinópolis
231,Kollam,IN,74.82,few clouds,8.8833,76.6,Sea Palace
232,Turukhansk,RU,-49.86,broken clouds,65.8167,87.9833,"Гостиница ОАО ""Туруханскэнерго"""
234,Mehamn,NO,28.35,few clouds,71.0357,27.8492,Mehamn Arctic hotell
237,Upington,ZA,66.22,clear sky,-28.4478,21.2561,Die Eiland Holiday Ressort
238,Esperance,AU,64.35,overcast clouds,-33.8667,121.9,Hospitality
239,Meulaboh,ID,76.08,overcast clouds,4.1363,96.1285,Hotel Meuligou
240,Chuy,UY,67.8,clear sky,-33.6971,-53.4616,Alerces
241,Mount Gambier,AU,85.75,clear sky,-37.8333,140.7667,The Old Mount Gambier Gaol
242,Saurimo,AO,65.17,overcast clouds,-9.6608,20.3916,Complexo Hoteleiro de Saurimo
244,Burnie,AU,62.94,broken clouds,-41.0667,145.9167,Burnie Central TownHouse Hotel
245,Pangnirtung,CA,-5.8,overcast clouds,66.1451,-65.7125,Auyuittuq Lodge
246,Husavik,IS,26.26,light snow,66.0449,-17.3389,Fosshótel Húsavík
247,Ulladulla,AU,66.56,broken clouds,-35.35,150.4667,Hotel Marlin
248,Te Anau,NZ,60.6,overcast clouds,-45.4167,167.7167,Lakeside Motels & Apartments
251,Mitsamiouli,KM,80.69,light rain,-11.3847,43.2844,Hotel le Paradis
253,Severo-Kurilsk,RU,24.19,overcast clouds,50.6789,156.125,"""Дом рыбака"""
258,Cedar City,US,33.71,overcast clouds,37.6775,-113.0619,Baymont Inn & Suites
259,Dhankuta,NP,45.99,clear sky,26.9833,87.3333,Murchunga Hotel
261,Naryan-Mar,RU,-15.07,few clouds,67.6713,53.087,"Гостиница ""Агат"""
262,Reconquista,AR,83.66,broken clouds,-29.15,-59.65,Hotel San Martin
263,Bubaque,GW,78.4,overcast clouds,11.2833,-15.8333,Chez Julio
266,Severodvinsk,RU,-1.89,light snow,64.5635,39.8302,Hermitage
267,Mackay,AU,89.69,overcast clouds,-21.15,149.2,Mackay Oceanside Central Apartment Hotel
269,Namibe,AO,70.45,broken clouds,-15.1961,12.1522,Hotel Chik Chik Namibe
270,Cajati,BR,64.18,few clouds,-24.7361,-48.1228,Sueber
274,Goose Creek,US,50.9,scattered clouds,32.981,-80.0326,Quality Inn
275,Arkhipo-Osipovka,RU,40.35,overcast clouds,44.37,38.52,"Санаторий ""Архипо-Осиповка"""
278,Coffs Harbour,AU,78.13,broken clouds,-30.3,153.1333,The Coast Hotel
280,Buraydah,SA,50.43,clear sky,26.326,43.975,دنا للوحدات السكنية
281,Pisco,PE,67.01,scattered clouds,-13.7,-76.2167,La Portada
284,Sept-Iles,CA,16.05,light snow,50.2001,-66.3821,Château Arnaud
285,Beaverlodge,CA,22.95,scattered clouds,55.2166,-119.4361,Side Trax Inn
286,Bredasdorp,ZA,61.79,clear sky,-34.5322,20.0403,Victoria Hotel
287,Along,IN,46.87,clear sky,28.1667,94.7667,Hotel Toshi Palace
288,Katsuura,JP,46.58,overcast clouds,35.1333,140.3,潮騒の宿
289,Semnan,IR,33.57,scattered clouds,35.5729,53.3971,مرکز آموزشی رفاهی فرهنگیان - خانه معلم
290,Kulunda,RU,19.38,overcast clouds,52.566,78.9385,Вояж
291,Burns Lake,CA,25.2,overcast clouds,54.2331,-125.7533,Key-oh Lodge
293,Altagracia De Orituco,VE,70.48,broken clouds,9.8601,-66.3814,Hotel El Canastro
296,Mola Di Bari,IT,56.91,scattered clouds,41.0609,17.0873,Hotel Gabbiano
297,Abha,SA,49.68,clear sky,18.2164,42.5053,SAHAB
299,Sorong,ID,81.52,overcast clouds,-0.8833,131.25,Hotel Membramo Marina
300,Honningsvag,NO,31.75,broken clouds,70.9821,25.9704,Scandic Honningsvåg
301,Jatai,BR,67.96,overcast clouds,-17.8814,-51.7144,Hotel Rio Claro
302,Glenwood Springs,US,34.83,light snow,39.5505,-107.3248,Hotel Colorado
304,San Cristobal,VE,66.07,few clouds,7.7669,-72.225,Terra Sur
305,Saint George,US,51.44,clear sky,37.1041,-113.5841,"The Advenire, an Autograph Collection Hotel"
307,Fort Nelson,CA,1.94,overcast clouds,58.8053,-122.7002,Fort Nelson Hotel
308,Novo Aripuana,BR,72.5,overcast clouds,-5.1206,-60.3797,Hotel Novo Aripuanã
310,Kangayam,IN,66.11,scattered clouds,11.0,77.5667,Manis Lodge
312,Bellinzona,CH,47.5,overcast clouds,46.1928,9.017,Ristorante Albergo Croce Federale
313,Ulagan,RU,15.71,overcast clouds,50.6321,87.9563,Постоялый дом 11
314,Baiyin,CN,29.19,clear sky,36.5583,104.2081,红鹭宾馆
315,Lagoa,PT,58.91,overcast clouds,39.05,-27.9833,Casa da Madrinha
316,Rabo De Peixe,PT,58.51,scattered clouds,37.8,-25.5833,Pico do Refugio
317,San Matias,BO,75.49,broken clouds,-16.3667,-58.4,Hotel San Jose
318,Sitka,US,40.89,overcast clouds,57.0531,-135.33,Aspen Suites Hotel
320,Golden,US,37.02,broken clouds,39.7555,-105.2211,The Golden Hotel
322,Saint-Jean-De-La-Ruelle,FR,51.91,overcast clouds,47.9113,1.8648,Ibis Styles Orleans
323,Altea,ES,56.68,clear sky,38.5989,-0.0514,Altea Suite Vault
325,Monrovia,LR,78.22,few clouds,6.3005,-10.7969,Bella Casa Hotel
326,Port Moresby,PG,78.84,overcast clouds,-9.4431,147.1797,The Sanctuary Hotel and Spa
327,Simpsonville,US,49.62,clear sky,34.7371,-82.2543,WoodSpring Suites
328,Sarkand,KZ,33.66,overcast clouds,45.41,79.9186,Сарканд
329,Oskarshamn,SE,33.98,overcast clouds,57.2645,16.4484,Clarion Collection Hotel Post
330,Pinawa,CA,1.85,broken clouds,50.1489,-95.8811,Pinawa Motor Inn
331,Cabo San Lucas,MX,72.18,clear sky,22.8909,-109.9124,Comfort Rooms
332,Ponta Delgada,PT,59.72,scattered clouds,37.7333,-25.6667,Hotel Talisman
333,Maarianhamina,AX,26.46,light snow,60.0973,19.9348,Hotell Esplanad
334,Toba,JP,42.8,overcast clouds,34.4833,136.85,鳥羽シーサイドホテル
338,Ambilobe,MG,72.25,broken clouds,-13.2,49.05,Hôtel National
341,Magadan,RU,-3.48,overcast clouds,59.5667,150.8,Гостиница «ВМ-Центр»
342,Videira,BR,61.43,clear sky,-27.0083,-51.1517,Hotel Brazão
343,Daugavpils,LV,8.76,overcast clouds,55.8833,26.5333,SanMari
345,Ca Mau,VN,72.19,overcast clouds,9.1769,105.15,Khách sạn Song Ngọc
347,Svetlogorsk,BY,11.61,overcast clouds,52.6333,29.7333,Гостиница Светочь
348,Bafia,CM,73.51,overcast clouds,4.75,11.2333,Hôtel Born Biyem
352,Nowa Deba,PL,45.39,overcast clouds,50.4297,21.7508,Hotel Szypowski
353,Vestmannaeyjar,IS,32.0,overcast clouds,63.4427,-20.2734,Westman Islands Inn
354,Guerrero Negro,MX,61.99,clear sky,27.9769,-114.0611,Plaza sal paraiso
356,Tromso,NO,17.38,clear sky,69.6496,18.957,Clarion Collection Hotel Aurora
357,Port Blair,IN,80.01,overcast clouds,11.6667,92.75,Andaman Ocean Breeze
358,Medina,SA,54.03,few clouds,24.4686,39.6142,The Oberoi Madina
359,Sabang,ID,79.7,broken clouds,5.8933,95.3214,Sabang Hill
360,Luganville,VU,86.65,overcast clouds,-15.5333,167.1667,Beachfront Resort
362,Norrkoping,SE,32.58,overcast clouds,58.5942,16.1826,Hotel President
365,Coquimbo,CL,64.13,clear sky,-29.9533,-71.3436,Hotel Iberia
367,Yar-Sale,RU,-33.59,overcast clouds,66.8333,70.8333,ЯЛЭМД
369,Bengkulu,ID,76.59,broken clouds,-3.8004,102.2655,Dena Hotel
370,Kirkenaer,NO,25.3,light snow,60.4564,12.0582,Skaslien Gjestgiveri
371,Garowe,SO,66.76,clear sky,8.4054,48.4845,Red Sea
372,Acajutla,SV,77.65,clear sky,13.5928,-89.8275,Hotel Lara
373,New Ulm,US,3.58,scattered clouds,44.3125,-94.4605,Microtel Inn & Suites by Wyndham New Ulm
377,Surt,LY,58.57,clear sky,31.2089,16.5887,فندق المدينة-سرت
378,Kokopo,PG,85.01,overcast clouds,-4.352,152.2633,Hotel Kokopo
379,Karratha,AU,86.76,clear sky,-20.7377,116.8463,Karratha International Hotel
381,Mogadishu,SO,76.95,scattered clouds,2.0371,45.3438,SYL Hotel
382,Muros,ES,58.08,light rain,42.7762,-9.0603,Pensión Ría de Muros
384,Ranong,TH,76.59,overcast clouds,9.9658,98.6348,Rattana Sin Hotel
385,Nemuro,JP,29.01,clear sky,43.3236,145.575,イーストハーバーホテル
386,Marataizes,BR,72.07,overcast clouds,-21.0433,-40.8244,Saveiros Palace Hotel
387,Mecca,SA,64.8,clear sky,21.4267,39.8261,Rehab Al Marwa Hotel 1
388,Kropotkin,RU,31.95,light snow,45.4375,40.5756,Европа
389,Vangaindrano,MG,72.16,scattered clouds,-23.35,47.6,Fanilo
391,Sistranda,NO,30.16,overcast clouds,63.7256,8.834,Hotell Frøya
392,Omsukchan,RU,-38.67,overcast clouds,62.5333,155.8,Гостиница Зори
393,Mabaruma,GY,71.94,broken clouds,8.2,-59.7833,Monty Brooms Hotel
395,Naze,JP,59.92,clear sky,28.3667,129.4833,ビジネス旅館畠山
396,Amurzet,RU,-9.85,scattered clouds,47.6967,131.0981,Гостиница Жемчужинка
397,Hearst,CA,7.54,overcast clouds,49.6835,-83.6665,Companion Hotel
398,Ambanja,MG,72.91,broken clouds,-13.6833,48.45,Hôtel Salama Rose
403,Solnechnyy,RU,-3.64,broken clouds,50.7214,136.6319,Заря
405,San Vicente,AR,63.5,clear sky,-26.6167,-54.1333,Los Lapachos
406,Dabeiba,CO,72.77,overcast clouds,7.0017,-76.2672,Hotel Cactus
407,Mananjary,MG,73.53,clear sky,-21.2167,48.3333,Ideal Hotel Annexe
408,Lamu,KE,77.22,clear sky,-2.2717,40.902,Hotel Archipelago villa bed and breakfast
411,Catia La Mar,VE,79.0,scattered clouds,10.6038,-67.0303,Posada La Parada
412,Chumikan,RU,-10.3,few clouds,54.7183,135.315,ТАТЬЯНА
413,Havre-Saint-Pierre,CA,17.91,overcast clouds,50.2334,-63.5986,Complexe MV
416,Port Augusta,AU,91.65,clear sky,-32.5,137.7667,Hotel Commonwealth
418,Puerto Carreno,CO,83.26,overcast clouds,6.189,-67.4859,Carreño Plaza
419,Schneeberg,DE,45.07,overcast clouds,50.6,12.6333,Berghotel Steiger
421,Baghdad,IQ,40.91,fog,33.3406,44.4009,AL Bedaa Hotel
422,Kenscoff,HT,64.54,light rain,18.4506,-72.2869,Auberge Bellecour
423,Santa Maria,BR,72.79,clear sky,-29.6842,-53.8069,Hotel Morotin
424,Akyab,MM,64.89,clear sky,20.15,92.9,Yuzana Aung Motel 1
425,Sur,OM,67.98,clear sky,22.5667,59.5289,Sur Hotel
428,Banepa,NP,35.92,mist,27.6298,85.5214,rajendra
430,Krasnyy Chikoy,RU,5.0,overcast clouds,50.3643,108.7512,"Гостиница ЗАО ""Слюдянка"""
431,Halifax,CA,32.68,overcast clouds,44.6453,-63.5724,Four Points by Sheraton Halifax
434,Tazovskiy,RU,-41.55,few clouds,67.4667,78.7,Тазовчанка
437,Cascais,PT,59.94,broken clouds,38.6979,-9.4215,Cascais Hotel
438,Sheridan,US,36.3,clear sky,44.8333,-106.9173,Comfort Inn & Suites
439,Wundanyi,KE,59.2,scattered clouds,-3.4019,38.364,Lavender Garden Hotel
441,Kalmunai,LK,74.68,scattered clouds,7.4167,81.8167,Saji new food
442,Vyazemskiy,RU,-4.47,broken clouds,47.5378,134.7525,Гостиница
443,Bullhead City,US,61.09,clear sky,35.1478,-114.5683,Laughlin River Lodge
444,Dunedin,NZ,59.81,broken clouds,-45.8742,170.5036,Scenic Hotel Dunedin City
446,Kathu,TH,82.74,overcast clouds,7.9178,98.3332,Tinidee Hotel
447,Bandrele,YT,80.35,light rain,-12.9067,45.1914,Les Baobabs
448,Pangkalanbuun,ID,80.11,overcast clouds,-2.6833,111.6167,Hotel Tiara
449,Marystown,CA,31.35,overcast clouds,47.1666,-55.1483,Marystown Hotel & Convention Centre
450,Esso,RU,8.76,overcast clouds,55.9333,158.7,Горизонты Камчатки
453,Sechura,PE,69.87,overcast clouds,-5.5569,-80.8222,Hospedaje Claritza
454,Olafsvik,IS,31.91,overcast clouds,64.8945,-23.7142,North Star Hotel Snæfellsnes
455,Kananga,CD,67.28,overcast clouds,-5.8958,22.4178,Hôtel Résidence
458,College,US,5.58,light snow,64.8569,-147.8028,BEST WESTERN PLUS Pioneer Park Inn
460,Smithers,CA,23.0,overcast clouds,54.7804,-127.1743,Sunshine Inn Hotel
461,Lardos,GR,55.22,clear sky,36.0942,28.0157,smartline Ellia
463,Mana,GF,75.76,overcast clouds,5.6592,-53.7767,Le Samana
465,Faanui,PF,81.14,overcast clouds,-16.4833,-151.75,Oa Oa Lodge
466,Isla Vista,US,60.35,clear sky,34.4133,-119.861,The Club & Guest House
468,Port-Gentil,GA,80.17,overcast clouds,-0.7193,8.7815,Tara-Mé
469,Winfield,US,46.49,clear sky,37.2398,-96.9956,Comfort Inn
471,Kabarnet,KE,53.96,clear sky,0.4919,35.743,City Clock Hotel
473,Tiebissou,CI,71.04,few clouds,7.1574,-5.2257,Hôtel La Providence
474,Antigonish,CA,32.83,overcast clouds,45.6169,-61.9986,Microtel Hotel
475,Port Shepstone,ZA,63.95,light rain,-30.7414,30.455,The Spot Backpackers'
478,Puerto Narino,CO,72.3,light rain,-3.7703,-70.3831,Eco Hotel Euare
480,Stolin,BY,25.38,overcast clouds,51.8912,26.846,Горынь
481,Nabire,ID,86.5,broken clouds,-3.3667,135.4833,Hotel Anggrek
483,Makat,KZ,37.42,overcast clouds,47.6469,53.3463,Гостиница ЛПУ Макат
484,Parrita,CR,75.97,clear sky,9.5201,-84.3225,Hotel Paraíso Carlisa
485,Mushie,CD,70.54,overcast clouds,-3.0167,16.9,hôtel Mushi
487,Oussouye,SN,69.98,few clouds,12.485,-16.5469,Campement Alulum
488,Nara,JP,44.96,overcast clouds,34.6851,135.8049,JWマリオットホテル奈良
489,Save,BJ,79.57,clear sky,8.0425,2.486,Idadu Hôtel
491,Teguldet,RU,-8.09,overcast clouds,57.3064,88.1667,Кедр
494,Bemidji,US,8.37,clear sky,47.4736,-94.8803,Hampton Inn and Suites
497,Gorontalo,ID,82.33,overcast clouds,0.5412,123.0595,Grand City Hotel
499,Fare,PF,81.0,overcast clouds,-16.7,-151.0167,hôtel Maitai Lapita Village
502,Talcahuano,CL,62.28,broken clouds,-36.7167,-73.1167,Club Recreativo Armada de Chile
503,Darab,IR,49.89,light rain,28.7519,54.5444,محدوده هتل جهانگردی
504,Dubbo,AU,78.93,clear sky,-32.25,148.6167,Blue Gum Motel
505,Makakilo City,US,80.92,clear sky,21.3469,-158.0858,Embassy Suites by Hilton Oahu Kapolei
506,Nagato,JP,47.05,broken clouds,34.3833,131.2,きらく
507,Amberieu-En-Bugey,FR,49.98,overcast clouds,45.9589,5.3432,Ambotel
508,Sao Filipe,CV,72.95,overcast clouds,14.8961,-24.4956,Bela Vista
509,Mareeba,AU,81.48,overcast clouds,-17.0,145.4333,The Gateway Hotel
510,Arvika,SE,29.01,light snow,59.6553,12.5852,Jennys Hotell och restaurang
511,Ketchikan,US,46.38,moderate rain,55.3422,-131.6461,Cape Fox Lodge
512,San Juan,AR,91.63,light rain,-31.5375,-68.5364,Hotel San Francisco
513,Huarmey,PE,69.12,scattered clouds,-10.0681,-78.1522,Hostal Santa Rosa
514,Cortes,ES,36.68,scattered clouds,41.9395,-1.4396,Casa rural El Talon del Rey
516,Tezpur,IN,52.34,clear sky,26.6333,92.8,Hotel Basant
517,Green Valley,US,57.43,overcast clouds,31.8543,-110.9937,Comfort Inn
518,Davila,PH,82.38,broken clouds,18.4726,120.5763,Blue Ridge Beach Resort
520,Freeport,US,45.01,overcast clouds,40.6576,-73.5832,The Freeport Inn and Marina
521,Namatanai,PG,84.33,light rain,-3.6667,152.4333,Namatanai Hotel
522,Tual,ID,83.21,overcast clouds,-5.6667,132.75,Suita
524,Sigulda,LV,6.76,overcast clouds,57.1519,24.8647,Pils
529,Zyryanovsk,KZ,21.65,light snow,49.7386,84.2719,У Брилина
530,Leh,IN,6.98,broken clouds,34.1667,77.5833,Kang Lha Chen
531,Holeby,DK,44.06,overcast clouds,54.7115,11.4642,Factory Lodge
534,Meiktila,MM,65.17,clear sky,20.8667,95.8667,Honey Hotel
538,San-Pedro,CI,77.85,broken clouds,4.7485,-6.6363,Hôtel La Cité De San Pédro
540,Camacha,PT,58.42,few clouds,33.0833,-16.3333,Praia Dourada
541,Pato Branco,BR,64.38,clear sky,-26.2286,-52.6706,Hotel San Pietro
542,Qaqortoq,GL,7.07,overcast clouds,60.7167,-46.0333,Hotel Qaqortoq
543,Cortez,US,32.76,scattered clouds,37.3489,-108.5859,BEST WESTERN Turquoise Inn & Suites
545,Puerto Escondido,MX,77.29,clear sky,15.85,-97.0667,Hotel Barlovento
546,Polson,US,30.78,broken clouds,47.6936,-114.1632,Bayview Inn
547,Pacifica,US,59.13,haze,37.6138,-122.4869,Holiday Inn Express & Suites Pacifica
550,Richards Bay,ZA,66.27,light rain,-28.783,32.0377,Protea Hotel
552,Anadyr,RU,-4.52,overcast clouds,64.75,177.4833,Гостевой дом
554,Andenes,NO,26.58,few clouds,69.3143,16.1194,Andrikken hotell
556,Pryazha,RU,-4.79,overcast clouds,61.6926,33.6216,Пряжа
557,Inhambane,MZ,74.84,light rain,-23.865,35.3833,Hotel de Inhambane
558,Nikolayevsk-Na-Amure,RU,-3.89,broken clouds,53.1406,140.73,Север
559,Ambulu,ID,80.26,broken clouds,-8.345,113.6058,Hotel Ambulu
560,Torzhok,RU,-16.58,scattered clouds,57.0436,34.9622,Тверца
561,Penzance,GB,54.28,light rain,50.1186,-5.5371,The Abbey Hotel
563,Salisbury,GB,54.68,overcast clouds,51.0693,-1.7957,The Cathedral Hotel
566,Mercedes,AR,80.78,clear sky,-34.6515,-59.4307,Gran Hotel Mercedes
567,Puerto Ayacucho,VE,79.11,overcast clouds,5.6639,-67.6236,Hotel VENETUR Amazonas
568,Marigot,MF,78.58,few clouds,18.0667,-63.0833,Centr' Hotel
570,Valkeakoski,FI,16.27,overcast clouds,61.2642,24.0312,Hotelli Waltikka
572,Axim,GH,78.31,few clouds,4.8699,-2.2405,Axim Beach Hotel
574,Biltine,TD,62.74,clear sky,14.5333,20.9167,فندق ثلاث نجوم بلتن
577,Celestun,MX,75.51,few clouds,20.8667,-90.4,Hotel Flamingo Playa
579,Shenjiamen,CN,50.41,clear sky,29.9576,122.298,Zhonghan Hotel
580,Kupang,ID,84.78,scattered clouds,-10.1667,123.5833,BIB & LANG GUEST HOUSE
583,Manzhouli,CN,-16.13,few clouds,49.6,117.4333,Пышка
584,Vila,PT,44.71,overcast clouds,42.0304,-8.1588,Hotel Miracastro
587,Ariquemes,BR,71.8,overcast clouds,-9.9133,-63.0408,Aquarius
590,Kota,IN,46.35,clear sky,25.1833,75.8333,Hotel Navrang
591,Nouadhibou,MR,67.6,clear sky,20.931,-17.0347,Hotel valencia
592,Tilichiki,RU,-14.62,overcast clouds,60.4667,166.1,Тиличики
593,Havelock,US,51.93,clear sky,34.8791,-76.9013,Quality Inn Havelock Hwy 70
594,Tolga,DZ,52.05,clear sky,34.7222,5.3785,فندق - دار الضياف ( في طريق الانجاز)
595,Elat,IL,55.24,haze,29.5581,34.9482,Melony Club
596,Great Bend,US,42.04,clear sky,38.3645,-98.7648,Best Western
598,Khandyga,RU,-35.45,overcast clouds,62.6667,135.6,Апельсин
601,North Bend,US,59.92,overcast clouds,43.4065,-124.2243,The Mill Casino Hotel
605,Portland,US,51.49,overcast clouds,45.5234,-122.6762,the Hoxton
606,Saint-Denis,FR,52.57,overcast clouds,48.9167,2.3333,Hôtel de France
607,Jawhar,SO,72.91,clear sky,2.7809,45.5005,Hotel Subiye
608,Aldan,RU,-7.38,overcast clouds,58.6031,125.3894,гостинница Велком Плаза
611,Itarema,BR,79.79,light rain,-2.9248,-39.9167,Pousada Oásis
612,Seoul,KR,36.79,overcast clouds,37.5683,126.9778,뉴국제호텔
615,Calabozo,VE,82.38,broken clouds,8.9242,-67.4293,Hotel Plaza Real
616,Caraballeda,VE,78.87,scattered clouds,10.6112,-66.8522,Hotel Belmar
617,Sakakah,SA,48.15,clear sky,29.9697,40.2064,sakakah residence
618,Neuquen,AR,89.49,clear sky,-38.9516,-68.0591,Hotel Argentina 307
619,Mount Isa,AU,91.17,overcast clouds,-20.7333,139.5,Ibis Styles
620,Salym,RU,-14.04,overcast clouds,60.0625,71.4789,Каравани
621,Darlowo,PL,41.59,overcast clouds,54.421,16.4107,Ośrodek Wczasowy Kama
623,Ahipara,NZ,72.54,overcast clouds,-35.1667,173.1667,YHA Ahipara
624,Chernyshevsk,RU,-22.83,broken clouds,52.5243,117.0174,Карина
627,Cooma,AU,69.24,clear sky,-36.2333,149.1333,Royal Hotel
628,Moche,PE,62.78,mist,-8.1711,-79.0092,Hotel Golf y Country Club
629,Kaoma,ZM,64.62,moderate rain,-14.7833,24.8,Pumulo Pardway Lodge
630,Ballina,AU,80.02,scattered clouds,-28.8667,153.5667,Ballina Beach Resort
632,Devarkonda,IN,64.2,clear sky,16.7,78.9333,udipi hotel
635,Tomari,RU,16.93,overcast clouds,47.7658,142.0683,Восточная
636,Eau Claire,US,14.38,clear sky,44.8114,-91.4985,The Lismore Hotel Eau Claire - a DoubleTree by Hilton Hotel
638,Bagnols-Sur-Ceze,FR,50.22,overcast clouds,44.1599,4.6178,Château du Val de Cèze
639,Monte Patria,CL,74.44,clear sky,-30.6919,-70.9467,Hotel Monte Cordillera
640,Victor Harbor,AU,92.68,clear sky,-35.5667,138.6167,Hotel Victor
642,Dillon,US,47.25,few clouds,34.4166,-79.3712,Quality Inn
643,Opunake,NZ,68.85,light rain,-39.4556,173.8583,Headlands Hotel and Restaurant Opunake
647,Banda Aceh,ID,77.94,broken clouds,5.5577,95.3222,Hotel 61
648,Buzmeyin,TM,45.95,clear sky,38.0507,58.2056,Myhmanhana
649,Lastoursville,GA,72.55,overcast clouds,-0.8143,12.7287,Hotel Tchenga
650,Praia Da Vitoria,PT,57.76,overcast clouds,38.7333,-27.0667,Salles
651,North Platte,US,29.12,few clouds,41.1239,-100.7654,Howard Johnson Inn - North Platte
652,Taltal,CL,68.83,clear sky,-25.4,-70.4833,Hostería Taltal
653,Huancabamba,PE,59.27,light rain,-5.2386,-79.4506,Hotel Chicuate
654,Papetoai,PF,85.59,overcast clouds,-17.4961,-149.8729,Ancien Intercontinental (fermé)
655,Plettenberg Bay,ZA,59.95,scattered clouds,-34.0527,23.3716,Milkwood Manor
657,Gladstone,AU,85.78,scattered clouds,-23.85,151.25,Gladstone Downtown Central
658,Warri,NG,75.52,scattered clouds,5.5167,5.75,Warri Sapele Road
659,Vao,NC,79.88,overcast clouds,-22.6667,167.4833,Nataiwatch
660,Ayni,TJ,29.71,scattered clouds,39.3941,68.5377,Меҳмонхона СУҒД
661,Limon,CR,74.05,clear sky,10.0,-83.0333,Hotel NG
662,Dandong,CN,21.2,few clouds,40.1292,124.3947,Lifes
664,Bhimunipatnam,IN,65.71,clear sky,17.8833,83.4333,Hotel Beach Paradise
665,Bhadrachalam,IN,63.25,clear sky,17.6667,80.8833,Haritha hotel (Telangana tourism hotel)
666,Ouesso,CG,71.01,overcast clouds,1.6136,16.0517,Auberge Nianina
669,Maceio,BR,76.44,clear sky,-9.6658,-35.7353,Maceió Hostel e Pousada
670,Stulovo,RU,-15.56,scattered clouds,58.7225,50.1439,Victoria Village
671,Jacmel,HT,80.44,clear sky,18.2342,-72.5347,Hotel L'Amenitie
672,Hasaki,JP,42.22,overcast clouds,35.7333,140.8333,大新旅館
673,Aktau,KZ,39.78,overcast clouds,43.65,51.2,Гульдана
674,Venustiano Carranza,MX,66.18,clear sky,19.43,-99.0992,City Express
675,Dingalan,PH,76.17,broken clouds,15.3897,121.3929,Fildaneinn
676,Fenoarivo,MG,64.47,broken clouds,-18.933,47.4354,Les Herons
677,Mbandaka,CD,73.18,overcast clouds,0.0487,18.2603,Hôtel Epervier
678,Okha,RU,-8.46,few clouds,53.5739,142.9478,Сфера
680,Dong Hoi,VN,66.33,broken clouds,17.4833,106.6,Nhà hàng Amor Palace
